<?xml version="1.0" encoding="UTF-8"?>
<kml xmlns="http://www.opengis.net/kml/2.2">
<Document>
<Placemark>
  <name>PKP Słotwiny</name>
  <description>name=PKP Słotwiny
ref=7447
capacity=12
amenity=bicycle_rental
operator=Nextbike Polska</description>
  <Point>
    <coordinates>19.839809,51.722506</coordinates>
  </Point>
</Placemark>
<Placemark>
  <name>Lisowice</name>
  <description>name=Lisowice
ref=7456
capacity=15
amenity=bicycle_rental
operator=Nextbike Polska</description>
  <Point>
    <coordinates>19.803665,51.77596</coordinates>
  </Point>
</Placemark>
<Placemark>
  <name>Szkoła Różyca</name>
  <description>name=Szkoła Różyca
ref=7458
capacity=12
amenity=bicycle_rental
operator=Nextbike Polska</description>
  <Point>
    <coordinates>19.791058,51.733265</coordinates>
  </Point>
</Placemark>
<Placemark>
  <name>Muzeum w Gałkowie Dużym</name>
  <description>name=Muzeum w Gałkowie Dużym
ref=7459
capacity=12
amenity=bicycle_rental
operator=Nextbike Polska</description>
  <Point>
    <coordinates>19.72492,51.735396</coordinates>
  </Point>
</Placemark>
<Placemark>
  <name>PKP Gałkówek</name>
  <description>name=PKP Gałkówek
ref=7460
capacity=12
amenity=bicycle_rental
operator=Nextbike Polska</description>
  <Point>
    <coordinates>19.731159,51.730122</coordinates>
  </Point>
</Placemark>
<Placemark>
  <name>Plac Zabaw- Gałkówek</name>
  <description>name=Plac Zabaw- Gałkówek
ref=7461
capacity=12
amenity=bicycle_rental
operator=Nextbike Polska</description>
  <Point>
    <coordinates>19.722163,51.72525</coordinates>
  </Point>
</Placemark>
<Placemark>
  <name>Ścieżka rowerowa Gałków- Justynów</name>
  <description>name=Ścieżka rowerowa Gałków- Justynów
ref=7462
capacity=12
amenity=bicycle_rental
operator=Nextbike Polska</description>
  <Point>
    <coordinates>19.713541,51.725491</coordinates>
  </Point>
</Placemark>
<Placemark>
  <name>Świetlica w Starym Redzeniu</name>
  <description>name=Świetlica w Starym Redzeniu
ref=7700
capacity=5
amenity=bicycle_rental
operator=Nextbike Polska</description>
  <Point>
    <coordinates>19.87359,51.71478</coordinates>
  </Point>
</Placemark>
</Document>
</kml>