<?xml version="1.0" encoding="UTF-8"?>
<kml xmlns="http://www.opengis.net/kml/2.2">
<Document>
<Placemark>
  <name>Łódzki Rower Publiczny - Wojska Polskiego / Franciszkańska</name>
  <description>name=Łódzki Rower Publiczny - Wojska Polskiego / Franciszkańska
ref=16002
capacity=6
amenity=bicycle_rental
operator=Nextbike Polska</description>
  <Point>
    <coordinates>19.46087,51.78475</coordinates>
  </Point>
</Placemark>
<Placemark>
  <name>Łódzki Rower Publiczny - Bandurskiego / Dworzec Łódź Kaliska</name>
  <description>name=Łódzki Rower Publiczny - Bandurskiego / Dworzec Łódź Kaliska
ref=16010
capacity=5
amenity=bicycle_rental
operator=Nextbike Polska</description>
  <Point>
    <coordinates>19.43165,51.75596</coordinates>
  </Point>
</Placemark>
<Placemark>
  <name>Łódzki Rower Publiczny - Bandurskiego / Karolewska</name>
  <description>name=Łódzki Rower Publiczny - Bandurskiego / Karolewska
ref=16011
capacity=5
amenity=bicycle_rental
operator=Nextbike Polska</description>
  <Point>
    <coordinates>19.42675,51.75539</coordinates>
  </Point>
</Placemark>
<Placemark>
  <name>Łódzki Rower Publiczny - Rokicińska / Gogola</name>
  <description>name=Łódzki Rower Publiczny - Rokicińska / Gogola
ref=16048
capacity=5
amenity=bicycle_rental
operator=Nextbike Polska</description>
  <Point>
    <coordinates>19.54458,51.75996</coordinates>
  </Point>
</Placemark>
<Placemark>
  <name>Łódzki Rower Publiczny - Rydzowa / Aleksandrowska</name>
  <description>name=Łódzki Rower Publiczny - Rydzowa / Aleksandrowska
ref=16050
capacity=10
amenity=bicycle_rental
operator=Nextbike Polska</description>
  <Point>
    <coordinates>19.37593,51.80028</coordinates>
  </Point>
</Placemark>
<Placemark>
  <name>Łódzki Rower Publiczny - Mickiewicza / Łąkowa</name>
  <description>name=Łódzki Rower Publiczny - Mickiewicza / Łąkowa
ref=16051
capacity=5
amenity=bicycle_rental
operator=Nextbike Polska</description>
  <Point>
    <coordinates>19.44504,51.75763</coordinates>
  </Point>
</Placemark>
<Placemark>
  <name>Łódzki Rower Publiczny - Przędzialniana / Fabryczna</name>
  <description>name=Łódzki Rower Publiczny - Przędzialniana / Fabryczna
ref=16057
capacity=5
amenity=bicycle_rental
operator=Nextbike Polska</description>
  <Point>
    <coordinates>19.48195,51.75759</coordinates>
  </Point>
</Placemark>
<Placemark>
  <name>Łódzki Rower Publiczny - Milionowa / Kilińskiego</name>
  <description>name=Łódzki Rower Publiczny - Milionowa / Kilińskiego
ref=16076
capacity=6
amenity=bicycle_rental
operator=Nextbike Polska</description>
  <Point>
    <coordinates>19.473766,51.749108</coordinates>
  </Point>
</Placemark>
<Placemark>
  <name>Łódzki Rower Publiczny - Wojska Polskiego / Sporna</name>
  <description>name=Łódzki Rower Publiczny - Wojska Polskiego / Sporna
ref=16100
capacity=5
amenity=bicycle_rental
operator=Nextbike Polska</description>
  <Point>
    <coordinates>19.47942,51.78936</coordinates>
  </Point>
</Placemark>
<Placemark>
  <name>Łódzki Rower Publiczny - Liściasta / Zgierska</name>
  <description>name=Łódzki Rower Publiczny - Liściasta / Zgierska
ref=16102
capacity=5
amenity=bicycle_rental
operator=Nextbike Polska</description>
  <Point>
    <coordinates>19.43966,51.8063</coordinates>
  </Point>
</Placemark>
<Placemark>
  <name>Łódzki Rower Publiczny - Zgierska / Świtezianki</name>
  <description>name=Łódzki Rower Publiczny - Zgierska / Świtezianki
ref=16119
capacity=5
amenity=bicycle_rental
operator=Nextbike Polska</description>
  <Point>
    <coordinates>19.43101,51.8228</coordinates>
  </Point>
</Placemark>
<Placemark>
  <name>Łódzki Rower Publiczny - Wojska Polskiego / Głowackiego</name>
  <description>name=Łódzki Rower Publiczny - Wojska Polskiego / Głowackiego
ref=16122
capacity=7
amenity=bicycle_rental
operator=Nextbike Polska</description>
  <Point>
    <coordinates>19.47138,51.78711</coordinates>
  </Point>
</Placemark>
<Placemark>
  <name>Łódzki Rower Publiczny - Wólczańska / Skorupki</name>
  <description>name=Łódzki Rower Publiczny - Wólczańska / Skorupki
ref=16123
capacity=5
amenity=bicycle_rental
operator=Nextbike Polska</description>
  <Point>
    <coordinates>19.45598,51.74925</coordinates>
  </Point>
</Placemark>
<Placemark>
  <name>Łódzki Rower Publiczny - Wólczańska / Czerwona</name>
  <description>name=Łódzki Rower Publiczny - Wólczańska / Czerwona
ref=16124
capacity=5
amenity=bicycle_rental
operator=Nextbike Polska</description>
  <Point>
    <coordinates>19.45725,51.74569</coordinates>
  </Point>
</Placemark>
<Placemark>
  <name>Łódzki Rower Publiczny - Sikorskiego / Nastrojowa</name>
  <description>name=Łódzki Rower Publiczny - Sikorskiego / Nastrojowa
ref=16125
capacity=5
amenity=bicycle_rental
operator=Nextbike Polska</description>
  <Point>
    <coordinates>19.44412,51.81759</coordinates>
  </Point>
</Placemark>
<Placemark>
  <name>Łódzki Rower Publiczny - Tatrzańska / Przybyszewskiego</name>
  <description>name=Łódzki Rower Publiczny - Tatrzańska / Przybyszewskiego
ref=16126
capacity=5
amenity=bicycle_rental
operator=Nextbike Polska</description>
  <Point>
    <coordinates>19.49338,51.74789</coordinates>
  </Point>
</Placemark>
<Placemark>
  <name>Łódzki Rower Publiczny - Przybyszewskiego / Nurta - Kaszyńskiego</name>
  <description>name=Łódzki Rower Publiczny - Przybyszewskiego / Nurta - Kaszyńskiego
ref=16127
capacity=5
amenity=bicycle_rental
operator=Nextbike Polska</description>
  <Point>
    <coordinates>19.50441,51.74928</coordinates>
  </Point>
</Placemark>
<Placemark>
  <name>Łódzki Rower Publiczny - Tatrzańska / Park Podolski</name>
  <description>name=Łódzki Rower Publiczny - Tatrzańska / Park Podolski
ref=16128
capacity=5
amenity=bicycle_rental
operator=Nextbike Polska</description>
  <Point>
    <coordinates>19.49517,51.74096</coordinates>
  </Point>
</Placemark>
<Placemark>
  <name>Łódzki Rower Publiczny - Tatrzańska / Dąbrowskiego</name>
  <description>name=Łódzki Rower Publiczny - Tatrzańska / Dąbrowskiego
ref=16129
capacity=5
amenity=bicycle_rental
operator=Nextbike Polska</description>
  <Point>
    <coordinates>19.4941,51.73691</coordinates>
  </Point>
</Placemark>
<Placemark>
  <name>Łódzki Rower Publiczny - Wyszyńskiego / Piaski</name>
  <description>name=Łódzki Rower Publiczny - Wyszyńskiego / Piaski
ref=16130
capacity=8
amenity=bicycle_rental
operator=Nextbike Polska</description>
  <Point>
    <coordinates>19.41277,51.74775</coordinates>
  </Point>
</Placemark>
<Placemark>
  <name>Łódzki Rower Publiczny - Maratońska / Retkińska</name>
  <description>name=Łódzki Rower Publiczny - Maratońska / Retkińska
ref=16131
capacity=5
amenity=bicycle_rental
operator=Nextbike Polska</description>
  <Point>
    <coordinates>19.40484,51.74121</coordinates>
  </Point>
</Placemark>
<Placemark>
  <name>Łódzki Rower Publiczny - Rondo Inwalidów</name>
  <description>name=Łódzki Rower Publiczny - Rondo Inwalidów
ref=16132
capacity=5
amenity=bicycle_rental
operator=Nextbike Polska</description>
  <Point>
    <coordinates>19.53595,51.76034</coordinates>
  </Point>
</Placemark>
<Placemark>
  <name>Łódzki Rower Publiczny - Rokicińska / Bartoka</name>
  <description>name=Łódzki Rower Publiczny - Rokicińska / Bartoka
ref=16133
capacity=5
amenity=bicycle_rental
operator=Nextbike Polska</description>
  <Point>
    <coordinates>19.52836,51.76214</coordinates>
  </Point>
</Placemark>
<Placemark>
  <name>Łódzki Rower Publiczny - Wujaka / Puszkina</name>
  <description>name=Łódzki Rower Publiczny - Wujaka / Puszkina
ref=16134
capacity=5
amenity=bicycle_rental
operator=Nextbike Polska</description>
  <Point>
    <coordinates>19.5358,51.75718</coordinates>
  </Point>
</Placemark>
<Placemark>
  <name>Łódzki Rower Publiczny - Rojna / Kaczeńcowa</name>
  <description>name=Łódzki Rower Publiczny - Rojna / Kaczeńcowa
ref=16135
capacity=5
amenity=bicycle_rental
operator=Nextbike Polska</description>
  <Point>
    <coordinates>19.38473,51.79412</coordinates>
  </Point>
</Placemark>
<Placemark>
  <name>Łódzki Rower Publiczny - Aleksandrowska / Traktorowa</name>
  <description>name=Łódzki Rower Publiczny - Aleksandrowska / Traktorowa
ref=16136
capacity=5
amenity=bicycle_rental
operator=Nextbike Polska</description>
  <Point>
    <coordinates>19.39373,51.79744</coordinates>
  </Point>
</Placemark>
<Placemark>
  <name>Łódzki Rower Publiczny - Aleksandrowska / Kaczeńcowa</name>
  <description>name=Łódzki Rower Publiczny - Aleksandrowska / Kaczeńcowa
ref=16137
capacity=5
amenity=bicycle_rental
operator=Nextbike Polska</description>
  <Point>
    <coordinates>19.38648,51.79889</coordinates>
  </Point>
</Placemark>
<Placemark>
  <name>Łódzki Rower Publiczny - Aleksandrowska / Bielicowa</name>
  <description>name=Łódzki Rower Publiczny - Aleksandrowska / Bielicowa
ref=16138
capacity=5
amenity=bicycle_rental
operator=Nextbike Polska</description>
  <Point>
    <coordinates>19.40241,51.79571</coordinates>
  </Point>
</Placemark>
<Placemark>
  <name>Łódzki Rower Publiczny - Wielkopolska / Turoszowska</name>
  <description>name=Łódzki Rower Publiczny - Wielkopolska / Turoszowska
ref=16139
capacity=5
amenity=bicycle_rental
operator=Nextbike Polska</description>
  <Point>
    <coordinates>19.41305,51.79188</coordinates>
  </Point>
</Placemark>
<Placemark>
  <name>Łódzki Rower Publiczny - Hasa / EC1</name>
  <description>name=Łódzki Rower Publiczny - Hasa / EC1
ref=16140
capacity=9
amenity=bicycle_rental
operator=Nextbike Polska</description>
  <Point>
    <coordinates>19.46846,51.76822</coordinates>
  </Point>
</Placemark>
<Placemark>
  <name>Łódzki Rower Publiczny - Legionów / Teatr Powszechny</name>
  <description>name=Łódzki Rower Publiczny - Legionów / Teatr Powszechny
ref=16141
capacity=5
amenity=bicycle_rental
operator=Nextbike Polska</description>
  <Point>
    <coordinates>19.44938,51.77644</coordinates>
  </Point>
</Placemark>
<Placemark>
  <name>Łódzki Rower Publiczny - Rzgowska / Szara</name>
  <description>name=Łódzki Rower Publiczny - Rzgowska / Szara
ref=16142
capacity=5
amenity=bicycle_rental
operator=Nextbike Polska</description>
  <Point>
    <coordinates>19.46737,51.7381</coordinates>
  </Point>
</Placemark>
<Placemark>
  <name>Łódzki Rower Publiczny - Rzgowska / Krasickiego</name>
  <description>name=Łódzki Rower Publiczny - Rzgowska / Krasickiego
ref=16143
capacity=5
amenity=bicycle_rental
operator=Nextbike Polska</description>
  <Point>
    <coordinates>19.47058,51.7348</coordinates>
  </Point>
</Placemark>
<Placemark>
  <name>Łódzki Rower Publiczny - Rzgowska / Kurczaki</name>
  <description>name=Łódzki Rower Publiczny - Rzgowska / Kurczaki
ref=16144
capacity=5
amenity=bicycle_rental
operator=Nextbike Polska</description>
  <Point>
    <coordinates>19.48497,51.71891</coordinates>
  </Point>
</Placemark>
<Placemark>
  <name>Łódzki Rower Publiczny - Rzgowska / Dachowa</name>
  <description>name=Łódzki Rower Publiczny - Rzgowska / Dachowa
ref=16145
capacity=5
amenity=bicycle_rental
operator=Nextbike Polska</description>
  <Point>
    <coordinates>19.4805,51.72564</coordinates>
  </Point>
</Placemark>
<Placemark>
  <name>Łódzki Rower Publiczny - Wyszyńskiego / Pałac Młodzieży</name>
  <description>name=Łódzki Rower Publiczny - Wyszyńskiego / Pałac Młodzieży
ref=16146
capacity=5
amenity=bicycle_rental
operator=Nextbike Polska</description>
  <Point>
    <coordinates>19.38996,51.74234</coordinates>
  </Point>
</Placemark>
<Placemark>
  <name>Łódzki Rower Publiczny - Kilińskiego / Tuwima</name>
  <description>name=Łódzki Rower Publiczny - Kilińskiego / Tuwima
ref=16147
capacity=5
amenity=bicycle_rental
operator=Nextbike Polska</description>
  <Point>
    <coordinates>19.46606,51.76551</coordinates>
  </Point>
</Placemark>
<Placemark>
  <name>Łódzki Rower Publiczny - Kilińskiego / Tylna</name>
  <description>name=Łódzki Rower Publiczny - Kilińskiego / Tylna
ref=16149
capacity=5
amenity=bicycle_rental
operator=Nextbike Polska</description>
  <Point>
    <coordinates>19.47201,51.75357</coordinates>
  </Point>
</Placemark>
<Placemark>
  <name>Łódzki Rower Publiczny - Paderewskiego / Tuszyńska</name>
  <description>name=Łódzki Rower Publiczny - Paderewskiego / Tuszyńska
ref=16150
capacity=5
amenity=bicycle_rental
operator=Nextbike Polska</description>
  <Point>
    <coordinates>19.4695,51.72874</coordinates>
  </Point>
</Placemark>
<Placemark>
  <name>Łódzki Rower Publiczny - Przybyszewskiego / Puszkina</name>
  <description>name=Łódzki Rower Publiczny - Przybyszewskiego / Puszkina
ref=16151
capacity=4
amenity=bicycle_rental
operator=Nextbike Polska</description>
  <Point>
    <coordinates>19.52911,51.753</coordinates>
  </Point>
</Placemark>
<Placemark>
  <name>Łódzki Rower Publiczny - Tramwajowa / Węglowa</name>
  <description>name=Łódzki Rower Publiczny - Tramwajowa / Węglowa
ref=16148
capacity=6
amenity=bicycle_rental
operator=Nextbike Polska</description>
  <Point>
    <coordinates>19.47715,51.77036</coordinates>
  </Point>
</Placemark>
</Document>
</kml>