<?xml version="1.0" encoding="UTF-8"?>
<kml xmlns="http://www.opengis.net/kml/2.2">
<Document>
<Placemark>
  <name>Łódzki Rower Publiczny - Broniewskiego / Tatrzańska</name>
  <description>name=Łódzki Rower Publiczny - Broniewskiego / Tatrzańska
ref=16004
capacity=10
amenity=bicycle_rental
operator=Nextbike Polska</description>
  <Point>
    <coordinates>19.493994,51.733307</coordinates>
  </Point>
</Placemark>
<Placemark>
  <name>Łódzki Rower Publiczny - Wujaka / Gogola</name>
  <description>name=Łódzki Rower Publiczny - Wujaka / Gogola
ref=16005
capacity=10
amenity=bicycle_rental
operator=Nextbike Polska</description>
  <Point>
    <coordinates>19.541879,51.756183</coordinates>
  </Point>
</Placemark>
<Placemark>
  <name>Łódzki Rower Publiczny - Ossowskiego / Augustyniaka</name>
  <description>name=Łódzki Rower Publiczny - Ossowskiego / Augustyniaka
ref=16006
capacity=10
amenity=bicycle_rental
operator=Nextbike Polska</description>
  <Point>
    <coordinates>19.423105,51.774395</coordinates>
  </Point>
</Placemark>
<Placemark>
  <name>Łódzki Rower Publiczny - Kilińskiego / Dąbrowskiego</name>
  <description>name=Łódzki Rower Publiczny - Kilińskiego / Dąbrowskiego
ref=16015
capacity=10
amenity=bicycle_rental
operator=Nextbike Polska</description>
  <Point>
    <coordinates>19.479419,51.73855</coordinates>
  </Point>
</Placemark>
<Placemark>
  <name>Łódzki Rower Publiczny - Kilińskiego / Nawrot</name>
  <description>name=Łódzki Rower Publiczny - Kilińskiego / Nawrot
ref=16016
capacity=10
amenity=bicycle_rental
operator=Nextbike Polska</description>
  <Point>
    <coordinates>19.467586,51.763019</coordinates>
  </Point>
</Placemark>
<Placemark>
  <name>Łódzki Rower Publiczny - Kilińskiego / Zarzewska</name>
  <description>name=Łódzki Rower Publiczny - Kilińskiego / Zarzewska
ref=16018
capacity=10
amenity=bicycle_rental
operator=Nextbike Polska</description>
  <Point>
    <coordinates>19.476905,51.743458</coordinates>
  </Point>
</Placemark>
<Placemark>
  <name>Łódzki Rower Publiczny - Kościuszki / Zamenhofa</name>
  <description>name=Łódzki Rower Publiczny - Kościuszki / Zamenhofa
ref=16022
capacity=10
amenity=bicycle_rental
operator=Nextbike Polska</description>
  <Point>
    <coordinates>19.454869,51.762292</coordinates>
  </Point>
</Placemark>
<Placemark>
  <name>Łódzki Rower Publiczny - Nawrot / Wodna</name>
  <description>name=Łódzki Rower Publiczny - Nawrot / Wodna
ref=16036
capacity=10
amenity=bicycle_rental
operator=Nextbike Polska</description>
  <Point>
    <coordinates>19.475744,51.763874</coordinates>
  </Point>
</Placemark>
<Placemark>
  <name>Łódzki Rower Publiczny -  Paderewskiego / Ciołkowskiego</name>
  <description>name=Łódzki Rower Publiczny -  Paderewskiego / Ciołkowskiego
ref=16038
capacity=10
amenity=bicycle_rental
operator=Nextbike Polska</description>
  <Point>
    <coordinates>19.457073,51.729564</coordinates>
  </Point>
</Placemark>
<Placemark>
  <name>Łódzki Rower Publiczny - Park Źródliska</name>
  <description>name=Łódzki Rower Publiczny - Park Źródliska
ref=16039
capacity=10
amenity=bicycle_rental
operator=Nextbike Polska</description>
  <Point>
    <coordinates>19.479175,51.761187</coordinates>
  </Point>
</Placemark>
<Placemark>
  <name>Łódzki Rower Publiczny - Parkowa / Inżynierska</name>
  <description>name=Łódzki Rower Publiczny - Parkowa / Inżynierska
ref=16040
capacity=10
amenity=bicycle_rental
operator=Nextbike Polska</description>
  <Point>
    <coordinates>19.442299,51.751835</coordinates>
  </Point>
</Placemark>
<Placemark>
  <name>Łódzki Rower Publiczny - Żeromskiego / Park Poniatowskiego</name>
  <description>name=Łódzki Rower Publiczny - Żeromskiego / Park Poniatowskiego
ref=16029
capacity=10
amenity=bicycle_rental
operator=Nextbike Polska</description>
  <Point>
    <coordinates>19.448452,51.755614</coordinates>
  </Point>
</Placemark>
<Placemark>
  <name>Łódzki Rower Publiczny - Piłsudskiego / Kilińskiego</name>
  <description>name=Łódzki Rower Publiczny - Piłsudskiego / Kilińskiego
ref=16041
capacity=10
amenity=bicycle_rental
operator=Nextbike Polska</description>
  <Point>
    <coordinates>19.468997,51.760552</coordinates>
  </Point>
</Placemark>
<Placemark>
  <name>Łódzki Rower Publiczny - Piłsudskiego / Konstytucyjna</name>
  <description>name=Łódzki Rower Publiczny - Piłsudskiego / Konstytucyjna
ref=16042
capacity=10
amenity=bicycle_rental
operator=Nextbike Polska</description>
  <Point>
    <coordinates>19.499703,51.763015</coordinates>
  </Point>
</Placemark>
<Placemark>
  <name>Łódzki Rower Publiczny - Piłsudskiego / Niciarniana</name>
  <description>name=Łódzki Rower Publiczny - Piłsudskiego / Niciarniana
ref=16043
capacity=10
amenity=bicycle_rental
operator=Nextbike Polska</description>
  <Point>
    <coordinates>19.508173,51.763774</coordinates>
  </Point>
</Placemark>
<Placemark>
  <name>Łódzki Rower Publiczny - Piłsudskiego / Sienkiewicza</name>
  <description>name=Łódzki Rower Publiczny - Piłsudskiego / Sienkiewicza
ref=16044
capacity=10
amenity=bicycle_rental
operator=Nextbike Polska</description>
  <Point>
    <coordinates>19.462405,51.76015</coordinates>
  </Point>
</Placemark>
<Placemark>
  <name>Łódzki Rower Publiczny - Piłsudskiego / Śmigłego - Rydza</name>
  <description>name=Łódzki Rower Publiczny - Piłsudskiego / Śmigłego - Rydza
ref=16045
capacity=10
amenity=bicycle_rental
operator=Nextbike Polska</description>
  <Point>
    <coordinates>19.484993,51.761186</coordinates>
  </Point>
</Placemark>
<Placemark>
  <name>Łódzki Rower Publiczny - Piotrkowska / Brzeźna</name>
  <description>name=Łódzki Rower Publiczny - Piotrkowska / Brzeźna
ref=16046
capacity=10
amenity=bicycle_rental
operator=Nextbike Polska</description>
  <Point>
    <coordinates>19.460134,51.752983</coordinates>
  </Point>
</Placemark>
<Placemark>
  <name>Łódzki Rower Publiczny - Piotrkowska / Milionowa</name>
  <description>name=Łódzki Rower Publiczny - Piotrkowska / Milionowa
ref=16047
capacity=10
amenity=bicycle_rental
operator=Nextbike Polska</description>
  <Point>
    <coordinates>19.46159,51.74609</coordinates>
  </Point>
</Placemark>
<Placemark>
  <name>Łódzki Rower Publiczny - Piotrkowska / Plac Katedralny</name>
  <description>name=Łódzki Rower Publiczny - Piotrkowska / Plac Katedralny
ref=16049
capacity=10
amenity=bicycle_rental
operator=Nextbike Polska</description>
  <Point>
    <coordinates>19.460748,51.748669</coordinates>
  </Point>
</Placemark>
<Placemark>
  <name>Łódzki Rower Publiczny - Piotrkowska / Tuwima</name>
  <description>name=Łódzki Rower Publiczny - Piotrkowska / Tuwima
ref=16050
capacity=10
amenity=bicycle_rental
operator=Nextbike Polska</description>
  <Point>
    <coordinates>19.457284,51.765331</coordinates>
  </Point>
</Placemark>
<Placemark>
  <name>Łódzki Rower Publiczny - Piotrkowska / Zamenhofa</name>
  <description>name=Łódzki Rower Publiczny - Piotrkowska / Zamenhofa
ref=16051
capacity=10
amenity=bicycle_rental
operator=Nextbike Polska</description>
  <Point>
    <coordinates>19.457803,51.762134</coordinates>
  </Point>
</Placemark>
<Placemark>
  <name>Łódzki Rower Publiczny - Piotrkowska / Żwirki</name>
  <description>name=Łódzki Rower Publiczny - Piotrkowska / Żwirki
ref=16052
capacity=10
amenity=bicycle_rental
operator=Nextbike Polska</description>
  <Point>
    <coordinates>19.458702,51.755957</coordinates>
  </Point>
</Placemark>
<Placemark>
  <name>Łódzki Rower Publiczny - Plac Niepodległości</name>
  <description>name=Łódzki Rower Publiczny - Plac Niepodległości
ref=16055
capacity=10
amenity=bicycle_rental
operator=Nextbike Polska</description>
  <Point>
    <coordinates>19.462779,51.740913</coordinates>
  </Point>
</Placemark>
<Placemark>
  <name>Łódzki Rower Publiczny - Plac Reymonta</name>
  <description>name=Łódzki Rower Publiczny - Plac Reymonta
ref=16057
capacity=10
amenity=bicycle_rental
operator=Nextbike Polska</description>
  <Point>
    <coordinates>19.462619,51.742416</coordinates>
  </Point>
</Placemark>
<Placemark>
  <name>Łódzki Rower Publiczny - Politechniki / Cieszyńska</name>
  <description>name=Łódzki Rower Publiczny - Politechniki / Cieszyńska
ref=16060
capacity=10
amenity=bicycle_rental
operator=Nextbike Polska</description>
  <Point>
    <coordinates>19.452371,51.734096</coordinates>
  </Point>
</Placemark>
<Placemark>
  <name>Łódzki Rower Publiczny - Politechniki / Hala EXPO</name>
  <description>name=Łódzki Rower Publiczny - Politechniki / Hala EXPO
ref=16061
capacity=10
amenity=bicycle_rental
operator=Nextbike Polska</description>
  <Point>
    <coordinates>19.45045,51.749537</coordinates>
  </Point>
</Placemark>
<Placemark>
  <name>Łódzki Rower Publiczny - Politechniki / Kampus C PŁ</name>
  <description>name=Łódzki Rower Publiczny - Politechniki / Kampus C PŁ
ref=16062
capacity=10
amenity=bicycle_rental
operator=Nextbike Polska</description>
  <Point>
    <coordinates>19.450365,51.747272</coordinates>
  </Point>
</Placemark>
<Placemark>
  <name>Łódzki Rower Publiczny - Politechniki / Piękna</name>
  <description>name=Łódzki Rower Publiczny - Politechniki / Piękna
ref=16063
capacity=10
amenity=bicycle_rental
operator=Nextbike Polska</description>
  <Point>
    <coordinates>19.452457,51.737521</coordinates>
  </Point>
</Placemark>
<Placemark>
  <name>Łódzki Rower Publiczny - Politechniki / Wróblewskiego</name>
  <description>name=Łódzki Rower Publiczny - Politechniki / Wróblewskiego
ref=16064
capacity=10
amenity=bicycle_rental
operator=Nextbike Polska</description>
  <Point>
    <coordinates>19.45089,51.744632</coordinates>
  </Point>
</Placemark>
<Placemark>
  <name>Łódzki Rower Publiczny - Przędzalniana / Tymienieckiego</name>
  <description>name=Łódzki Rower Publiczny - Przędzalniana / Tymienieckiego
ref=16074
capacity=10
amenity=bicycle_rental
operator=Nextbike Polska</description>
  <Point>
    <coordinates>19.48429,51.753996</coordinates>
  </Point>
</Placemark>
<Placemark>
  <name>Łódzki Rower Publiczny - Sosnowa / Senatorska</name>
  <description>name=Łódzki Rower Publiczny - Sosnowa / Senatorska
ref=16075
capacity=10
amenity=bicycle_rental
operator=Nextbike Polska</description>
  <Point>
    <coordinates>19.466987,51.746395</coordinates>
  </Point>
</Placemark>
<Placemark>
  <name>Łódzki Rower Publiczny - Milionowa / Kilińskiego</name>
  <description>name=Łódzki Rower Publiczny - Milionowa / Kilińskiego
ref=16076
capacity=10
amenity=bicycle_rental
operator=Nextbike Polska</description>
  <Point>
    <coordinates>19.473766,51.749108</coordinates>
  </Point>
</Placemark>
<Placemark>
  <name>Łódzki Rower Publiczny - Przybyszewskiego / Śmigłego-Rydza</name>
  <description>name=Łódzki Rower Publiczny - Przybyszewskiego / Śmigłego-Rydza
ref=16078
capacity=10
amenity=bicycle_rental
operator=Nextbike Polska</description>
  <Point>
    <coordinates>19.490177,51.748071</coordinates>
  </Point>
</Placemark>
<Placemark>
  <name>Łódzki Rower Publiczny - Radwańska / Stefanowskiego</name>
  <description>name=Łódzki Rower Publiczny - Radwańska / Stefanowskiego
ref=16079
capacity=10
amenity=bicycle_rental
operator=Nextbike Polska</description>
  <Point>
    <coordinates>19.452572,51.752211</coordinates>
  </Point>
</Placemark>
<Placemark>
  <name>Łódzki Rower Publiczny - Rondo Lotników Lwowskich</name>
  <description>name=Łódzki Rower Publiczny - Rondo Lotników Lwowskich
ref=16080
capacity=10
amenity=bicycle_rental
operator=Nextbike Polska</description>
  <Point>
    <coordinates>19.453541,51.732089</coordinates>
  </Point>
</Placemark>
<Placemark>
  <name>Łódzki Rower Publiczny - Sienkiewicza / Pasaż Schillera</name>
  <description>name=Łódzki Rower Publiczny - Sienkiewicza / Pasaż Schillera
ref=16082
capacity=10
amenity=bicycle_rental
operator=Nextbike Polska</description>
  <Point>
    <coordinates>19.461765,51.764053</coordinates>
  </Point>
</Placemark>
<Placemark>
  <name>Łódzki Rower Publiczny - Sienkiewicza / Tuwima</name>
  <description>name=Łódzki Rower Publiczny - Sienkiewicza / Tuwima
ref=16083
capacity=10
amenity=bicycle_rental
operator=Nextbike Polska</description>
  <Point>
    <coordinates>19.461333,51.766028</coordinates>
  </Point>
</Placemark>
<Placemark>
  <name>Łódzki Rower Publiczny - Sienkiewicza / Wigury</name>
  <description>name=Łódzki Rower Publiczny - Sienkiewicza / Wigury
ref=16085
capacity=10
amenity=bicycle_rental
operator=Nextbike Polska</description>
  <Point>
    <coordinates>19.463868,51.756538</coordinates>
  </Point>
</Placemark>
<Placemark>
  <name>Łódzki Rower Publiczny - Perla / XVIII LO</name>
  <description>name=Łódzki Rower Publiczny - Perla / XVIII LO
ref=16086
capacity=10
amenity=bicycle_rental
operator=Nextbike Polska</description>
  <Point>
    <coordinates>19.412389,51.774921</coordinates>
  </Point>
</Placemark>
<Placemark>
  <name>Łódzki Rower Publiczny - Śmigłego-Rydza / Dąbrowskiego</name>
  <description>name=Łódzki Rower Publiczny - Śmigłego-Rydza / Dąbrowskiego
ref=16089
capacity=10
amenity=bicycle_rental
operator=Nextbike Polska</description>
  <Point>
    <coordinates>19.489539,51.737327</coordinates>
  </Point>
</Placemark>
<Placemark>
  <name>Łódzki Rower Publiczny - Śmigłego-Rydza / Przędzalniana</name>
  <description>name=Łódzki Rower Publiczny - Śmigłego-Rydza / Przędzalniana
ref=16090
capacity=10
amenity=bicycle_rental
operator=Nextbike Polska</description>
  <Point>
    <coordinates>19.488616,51.741692</coordinates>
  </Point>
</Placemark>
<Placemark>
  <name>Łódzki Rower Publiczny - Targowa / Fabryczna</name>
  <description>name=Łódzki Rower Publiczny - Targowa / Fabryczna
ref=16091
capacity=10
amenity=bicycle_rental
operator=Nextbike Polska</description>
  <Point>
    <coordinates>19.473587,51.757122</coordinates>
  </Point>
</Placemark>
<Placemark>
  <name>Łódzki Rower Publiczny - Tuwima / Dowborczyków</name>
  <description>name=Łódzki Rower Publiczny - Tuwima / Dowborczyków
ref=16094
capacity=10
amenity=bicycle_rental
operator=Nextbike Polska</description>
  <Point>
    <coordinates>19.469488,51.766513</coordinates>
  </Point>
</Placemark>
<Placemark>
  <name>Łódzki Rower Publiczny - Wojska Polskiego / Sporna</name>
  <description>name=Łódzki Rower Publiczny - Wojska Polskiego / Sporna
ref=16100
capacity=10
amenity=bicycle_rental
operator=Nextbike Polska</description>
  <Point>
    <coordinates>19.478515,51.790289</coordinates>
  </Point>
</Placemark>
<Placemark>
  <name>Łódzki Rower Publiczny - Chmielowskiego / Czernika</name>
  <description>name=Łódzki Rower Publiczny - Chmielowskiego / Czernika
ref=16115
capacity=10
amenity=bicycle_rental
operator=Nextbike Polska</description>
  <Point>
    <coordinates>19.526712,51.758667</coordinates>
  </Point>
</Placemark>
<Placemark>
  <name>Łódzki Rower Publiczny - Młynarska / Zofii</name>
  <description>name=Łódzki Rower Publiczny - Młynarska / Zofii
ref=16116
capacity=10
amenity=bicycle_rental
operator=Nextbike Polska</description>
  <Point>
    <coordinates>19.457779,51.789872</coordinates>
  </Point>
</Placemark>
<Placemark>
  <name>Łódzki Rower Publiczny - Piotrkowska Centrum</name>
  <description>name=Łódzki Rower Publiczny - Piotrkowska Centrum
ref=16117
capacity=10
amenity=bicycle_rental
operator=Nextbike Polska</description>
  <Point>
    <coordinates>19.457834,51.759026</coordinates>
  </Point>
</Placemark>
<Placemark>
  <name>Łódzki Rower Publiczny - Sienkiewicza / Tylna</name>
  <description>name=Łódzki Rower Publiczny - Sienkiewicza / Tylna
ref=16084
capacity=10
amenity=bicycle_rental
operator=Nextbike Polska</description>
  <Point>
    <coordinates>19.46473,51.752023</coordinates>
  </Point>
</Placemark>
<Placemark>
  <name>Łódzki Rower Publiczny - Stefanowskiego / Żwirki</name>
  <description>name=Łódzki Rower Publiczny - Stefanowskiego / Żwirki
ref=16087
capacity=10
amenity=bicycle_rental
operator=Nextbike Polska</description>
  <Point>
    <coordinates>19.452392,51.755427</coordinates>
  </Point>
</Placemark>
</Document>
</kml>