<?xml version="1.0" encoding="UTF-8"?>
<kml xmlns="http://www.opengis.net/kml/2.2">
<Document>
<Placemark>
  <name>Osiedlowa/Ciepłownicza Siechnice</name>
  <description>name=Osiedlowa/Ciepłownicza Siechnice
ref=15317
capacity=6
amenity=bicycle_rental
operator=Nextbike Polska</description>
  <Point>
    <coordinates>17.153896,51.025382</coordinates>
  </Point>
</Placemark>
<Placemark>
  <name>Siechnice PKP</name>
  <description>name=Siechnice PKP
ref=15318
capacity=6
amenity=bicycle_rental
operator=Nextbike Polska</description>
  <Point>
    <coordinates>17.144258,51.038098</coordinates>
  </Point>
</Placemark>
<Placemark>
  <name>Siechnice UM</name>
  <description>name=Siechnice UM
ref=15319
capacity=6
amenity=bicycle_rental
operator=Nextbike Polska</description>
  <Point>
    <coordinates>17.150512,51.032555</coordinates>
  </Point>
</Placemark>
<Placemark>
  <name>Radwanice ul. Kolejowa (Biedronka)</name>
  <description>name=Radwanice ul. Kolejowa (Biedronka)
ref=15322
capacity=6
amenity=bicycle_rental
operator=Nextbike Polska</description>
  <Point>
    <coordinates>17.105197,51.057135</coordinates>
  </Point>
</Placemark>
<Placemark>
  <name>Żerniki Wrocławskie Pętla</name>
  <description>name=Żerniki Wrocławskie Pętla
ref=15321
capacity=6
amenity=bicycle_rental
operator=Nextbike Polska</description>
  <Point>
    <coordinates>17.056056,51.033391</coordinates>
  </Point>
</Placemark>
<Placemark>
  <name>Święta Katarzyna PKP</name>
  <description>name=Święta Katarzyna PKP
ref=15320
capacity=6
amenity=bicycle_rental
operator=Nextbike Polska</description>
  <Point>
    <coordinates>17.123084,51.029405</coordinates>
  </Point>
</Placemark>
<Placemark>
  <name>Radomierzyce Wrocławska</name>
  <description>name=Radomierzyce Wrocławska
ref=15341
capacity=3
amenity=bicycle_rental
operator=Nextbike Polska</description>
  <Point>
    <coordinates>17.038286,51.045807</coordinates>
  </Point>
</Placemark>
<Placemark>
  <name>Biestrzyków Kalinowa</name>
  <description>name=Biestrzyków Kalinowa
ref=15342
capacity=None
amenity=bicycle_rental
operator=Nextbike Polska</description>
  <Point>
    <coordinates>17.041388,51.031695</coordinates>
  </Point>
</Placemark>
</Document>
</kml>